[
  {
    "name": "더블업홀덤펍 경북대점",
    "phone": "0503-7150-6480",
    "url": "http://place.map.kakao.com/765883828",
    "openingHours": "정보 없음",
    "reviewCount": "0"
  },
  {
    "name": "공차 경북대점",
    "phone": "053-959-0303",
    "url": "http://place.map.kakao.com/26620945",
    "openingHours": "정보 없음",
    "reviewCount": "0"
  },
  {
    "name": "투썸플레이스 대구경북대점",
    "phone": "053-953-9353",
    "url": "http://place.map.kakao.com/27401180",
    "openingHours": "정보 없음",
    "reviewCount": "0"
  },
  {
    "name": "스타벅스 경북대점",
    "phone": "1522-3232",
    "url": "http://place.map.kakao.com/17884722",
    "openingHours": "정보 없음",
    "reviewCount": "0"
  },
  {
    "name": "아틀리에빈 경북대점",
    "phone": "053-959-1306",
    "url": "http://place.map.kakao.com/120094744",
    "openingHours": "정보 없음",
    "reviewCount": "0"
  },
  {
    "name": "모두의카페다다름",
    "phone": "전화번호 없음",
    "url": "http://place.map.kakao.com/1155246455",
    "openingHours": "정보 없음",
    "reviewCount": "0"
  },
  {
    "name": "썸카페",
    "phone": "전화번호 없음",
    "url": "http://place.map.kakao.com/1861654658",
    "openingHours": "정보 없음",
    "reviewCount": "0"
  },
  {
    "name": "매스커피 경북대점",
    "phone": "053-955-8994",
    "url": "http://place.map.kakao.com/26929458",
    "openingHours": "정보 없음",
    "reviewCount": "0"
  },
  {
    "name": "프롬프트 일청담점",
    "phone": "070-4015-3476",
    "url": "http://place.map.kakao.com/1006797863",
    "openingHours": "정보 없음",
    "reviewCount": "0"
  },
  {
    "name": "과일싸롱 경북대점",
    "phone": "전화번호 없음",
    "url": "http://place.map.kakao.com/1955268793",
    "openingHours": "정보 없음",
    "reviewCount": "0"
  },
  {
    "name": "마실커피 경북대점",
    "phone": "053-945-0055",
    "url": "http://place.map.kakao.com/951400970",
    "openingHours": "정보 없음",
    "reviewCount": "0"
  },
  {
    "name": "해쉬커피 경북대북문점",
    "phone": "전화번호 없음",
    "url": "http://place.map.kakao.com/85982486",
    "openingHours": "정보 없음",
    "reviewCount": "0"
  },
  {
    "name": "만화카페쉼표",
    "phone": "053-952-3830",
    "url": "http://place.map.kakao.com/688422543",
    "openingHours": "정보 없음",
    "reviewCount": "0"
  },
  {
    "name": "아지트 경북대점",
    "phone": "070-8285-6811",
    "url": "http://place.map.kakao.com/586783489",
    "openingHours": "정보 없음",
    "reviewCount": "0"
  },
  {
    "name": "카페플랜 경북대점",
    "phone": "053-710-3017",
    "url": "http://place.map.kakao.com/388911316",
    "openingHours": "정보 없음",
    "reviewCount": "0"
  }
]